{
  "medical": [
    {
      "lat": 37.32886,
      "lon": 127.11563,
      "name": ""
    },
    {
      "lat": 37.33195,
      "lon": 127.12384,
      "name": "죽전키즈앤미즈한의원"
    },
    {
      "lat": 37.32719,
      "lon": 127.11286,
      "name": ""
    },
    {
      "lat": 37.332,
      "lon": 127.12544,
      "name": "핑크한의원"
    },
    {
      "lat": 37.32843,
      "lon": 127.11376,
      "name": ""
    },
    {
      "lat": 37.32011,
      "lon": 127.09803,
      "name": "서울경희한의원"
    },
    {
      "lat": 37.32842,
      "lon": 127.11374,
      "name": ""
    },
    {
      "lat": 37.32022,
      "lon": 127.11388,
      "name": "연세웰비뇨기과피부과"
    },
    {
      "lat": 37.33204,
      "lon": 127.12763,
      "name": "희망찬한의원"
    },
    {
      "lat": 37.32707,
      "lon": 127.11334,
      "name": ""
    },
    {
      "lat": 37.32199,
      "lon": 127.09611,
      "name": "밝은누리안과"
    },
    {
      "lat": 37.32719,
      "lon": 127.11286,
      "name": "하이탑피부비뇨기과의원"
    },
    {
      "lat": 37.33196,
      "lon": 127.12059,
      "name": ""
    },
    {
      "lat": 37.33535,
      "lon": 127.10869,
      "name": "경희태동한의원"
    },
    {
      "lat": 37.32835,
      "lon": 127.11448,
      "name": ""
    },
    {
      "lat": 37.3225,
      "lon": 127.0957,
      "name": "맑은신경과"
    },
    {
      "lat": 37.32702,
      "lon": 127.09868,
      "name": "와이즈병원"
    },
    {
      "lat": 37.33164,
      "lon": 127.11059,
      "name": "태영한의원"
    },
    {
      "lat": 37.33199,
      "lon": 127.12358,
      "name": "연세키즈소아과"
    },
    {
      "lat": 37.33251,
      "lon": 127.10092,
      "name": "알콜정신전문병원"
    },
    {
      "lat": 37.32702,
      "lon": 127.09868,
      "name": "종아리퇴축비만클리닉"
    },
    {
      "lat": 37.32865,
      "lon": 127.11421,
      "name": ""
    },
    {
      "lat": 37.32702,
      "lon": 127.09868,
      "name": "수지서울정형외과"
    },
    {
      "lat": 37.32702,
      "lon": 127.09868,
      "name": "연세내과의원"
    },
    {
      "lat": 37.34072,
      "lon": 127.09903,
      "name": "연세웰내과의원"
    },
    {
      "lat": 37.32701,
      "lon": 127.11225,
      "name": "유영일내과의원"
    },
    {
      "lat": 37.32702,
      "lon": 127.09868,
      "name": "미라클의원"
    },
    {
      "lat": 37.32863,
      "lon": 127.11419,
      "name": ""
    },
    {
      "lat": 37.32459,
      "lon": 127.09749,
      "name": "김안과의원"
    },
    {
      "lat": 37.32236,
      "lon": 127.09771,
      "name": "수지정신보건실"
    },
    {
      "lat": 37.33725,
      "lon": 127.08875,
      "name": "염광피부과의원"
    },
    {
      "lat": 37.32863,
      "lon": 127.11419,
      "name": ""
    },
    {
      "lat": 37.32699,
      "lon": 127.11219,
      "name": "장이비인후과"
    },
    {
      "lat": 37.32861,
      "lon": 127.11425,
      "name": ""
    },
    {
      "lat": 37.32348,
      "lon": 127.09556,
      "name": "차호인정형외과"
    },
    {
      "lat": 37.33572,
      "lon": 127.09328,
      "name": "동천서울이비인후과의원"
    },
    {
      "lat": 37.32176,
      "lon": 127.0941,
      "name": "수지신경외과"
    },
    {
      "lat": 37.32221,
      "lon": 127.09474,
      "name": "길이비인후과"
    },
    {
      "lat": 37.33165,
      "lon": 127.11748,
      "name": ""
    },
    {
      "lat": 37.33045,
      "lon": 127.10844,
      "name": ""
    },
    {
      "lat": 37.32459,
      "lon": 127.09749,
      "name": "용한외과"
    },
    {
      "lat": 37.32217,
      "lon": 127.09584,
      "name": "이안소아과의원"
    },
    {
      "lat": 37.32459,
      "lon": 127.09749,
      "name": "연세산부인과"
    },
    {
      "lat": 37.32191,
      "lon": 127.09594,
      "name": "로하스정신과의원"
    },
    {
      "lat": 37.32447,
      "lon": 127.07671,
      "name": "참가정의원"
    },
    {
      "lat": 37.33593,
      "lon": 127.09298,
      "name": "동천한의원"
    },
    {
      "lat": 37.32192,
      "lon": 127.09608,
      "name": "수강한의원"
    },
    {
      "lat": 37.32097,
      "lon": 127.09466,
      "name": "수지아동발달센터"
    },
    {
      "lat": 37.32073,
      "lon": 127.11502,
      "name": "맥한의원"
    },
    {
      "lat": 37.32334,
      "lon": 127.09575,
      "name": "이상봉마취통증의학과의원"
    },
    {
      "lat": 37.32702,
      "lon": 127.09868,
      "name": "성모마취통증의학과의원"
    },
    {
      "lat": 37.33431,
      "lon": 127.09701,
      "name": "영재한의원"
    },
    {
      "lat": 37.32571,
      "lon": 127.09647,
      "name": "수지한의원"
    },
    {
      "lat": 37.32221,
      "lon": 127.09474,
      "name": "경희본한의원"
    },
    {
      "lat": 37.32177,
      "lon": 127.09416,
      "name": "소망한의원"
    },
    {
      "lat": 37.32256,
      "lon": 127.09554,
      "name": "카톨릭경희한의원"
    },
    {
      "lat": 37.3481,
      "lon": 127.08917,
      "name": "주성차병원"
    },
    {
      "lat": 37.34966,
      "lon": 127.10958,
      "name": "한양내과, 류마티스클리닉-Hanyang Clinic"
    },
    {
      "lat": 37.38847,
      "lon": 127.11548,
      "name": "맑은이빈인후과의원 판교점"
    },
    {
      "lat": 37.38845,
      "lon": 127.11543,
      "name": "도제한의원"
    },
    {
      "lat": 37.38852,
      "lon": 127.1154,
      "name": "튼튼가정의학과의원"
    },
    {
      "lat": 37.38842,
      "lon": 127.1151,
      "name": "판교연세피부과"
    },
    {
      "lat": 37.38835,
      "lon": 127.11509,
      "name": "맑은샘경희한의원"
    },
    {
      "lat": 37.38831,
      "lon": 127.11511,
      "name": "퍼스트소아청소년과"
    },
    {
      "lat": 37.38823,
      "lon": 127.11468,
      "name": "선현주한의원"
    },
    {
      "lat": 37.38731,
      "lon": 127.12347,
      "name": "좋은이웃요양병원"
    },
    {
      "lat": 37.3869,
      "lon": 127.12177,
      "name": "분당제일여성병원"
    },
    {
      "lat": 37.38398,
      "lon": 127.12015,
      "name": "서울나우병원"
    },
    {
      "lat": 37.45589,
      "lon": 127.16202,
      "name": "양지부부한의원"
    },
    {
      "lat": 37.45801,
      "lon": 127.16459,
      "name": "태평양약국"
    },
    {
      "lat": 37.33708,
      "lon": 127.11658,
      "name": ""
    },
    {
      "lat": 37.33698,
      "lon": 127.11593,
      "name": ""
    },
    {
      "lat": 37.33711,
      "lon": 127.11595,
      "name": ""
    },
    {
      "lat": 37.33766,
      "lon": 127.11633,
      "name": ""
    },
    {
      "lat": 37.33769,
      "lon": 127.11637,
      "name": ""
    },
    {
      "lat": 37.35821,
      "lon": 127.10033,
      "name": "더헤리티지 너싱홈"
    },
    {
      "lat": 37.34389,
      "lon": 127.17951,
      "name": "백두산약국"
    },
    {
      "lat": 37.36728,
      "lon": 127.12803,
      "name": "동국대학교 분당한방병원"
    },
    {
      "lat": 37.43067,
      "lon": 127.12981,
      "name": "모란정신건강의학과의원"
    },
    {
      "lat": 37.39769,
      "lon": 127.1126,
      "name": "메디피움병원"
    },
    {
      "lat": 37.4399,
      "lon": 127.14406,
      "name": "휴엔병원(12층)"
    },
    {
      "lat": 37.39643,
      "lon": 127.11175,
      "name": "럭스타워약국"
    },
    {
      "lat": 37.39644,
      "lon": 127.11146,
      "name": "럭스온누리약국"
    },
    {
      "lat": 37.39791,
      "lon": 127.11269,
      "name": "웰츠약국"
    },
    {
      "lat": 37.4399,
      "lon": 127.14399,
      "name": "휴엔병원(12층)"
    },
    {
      "lat": 37.39645,
      "lon": 127.1115,
      "name": "럭스온누리약국"
    },
    {
      "lat": 37.39645,
      "lon": 127.11173,
      "name": "럭스타워약국"
    },
    {
      "lat": 37.39736,
      "lon": 127.11269,
      "name": "태평양약국"
    },
    {
      "lat": 37.41104,
      "lon": 127.12469,
      "name": "분당구보건소"
    },
    {
      "lat": 37.35418,
      "lon": 127.12088,
      "name": "헬스케어혁신파크"
    },
    {
      "lat": 37.38536,
      "lon": 127.12455,
      "name": "분당백화점약국 (연중무휴)"
    },
    {
      "lat": 37.45792,
      "lon": 127.16475,
      "name": "새코끼리약국"
    },
    {
      "lat": 37.3433,
      "lon": 127.17826,
      "name": "드림약국"
    },
    {
      "lat": 37.34427,
      "lon": 127.17999,
      "name": "능골사랑약국"
    },
    {
      "lat": 37.34425,
      "lon": 127.17827,
      "name": "대평양약국"
    },
    {
      "lat": 37.34497,
      "lon": 127.17761,
      "name": "오포온누리약국"
    },
    {
      "lat": 37.3306,
      "lon": 127.1558,
      "name": "능원약국"
    },
    {
      "lat": 37.45369,
      "lon": 127.1616,
      "name": "마이팜 약국"
    },
    {
      "lat": 37.32789,
      "lon": 127.0731,
      "name": "올가스킨케어"
    },
    {
      "lat": 37.44432,
      "lon": 127.14417,
      "name": "수정구 보건소"
    },
    {
      "lat": 37.34979,
      "lon": 127.1094,
      "name": "분당메디칼약국"
    },
    {
      "lat": 37.35085,
      "lon": 127.10925,
      "name": "태광약국"
    },
    {
      "lat": 37.35021,
      "lon": 127.11046,
      "name": "미금프라자약국"
    },
    {
      "lat": 37.34567,
      "lon": 127.11174,
      "name": "하나약국"
    },
    {
      "lat": 37.34972,
      "lon": 127.11632,
      "name": "명수약국"
    },
    {
      "lat": 37.34967,
      "lon": 127.11061,
      "name": "엄마손약국"
    },
    {
      "lat": 37.3497,
      "lon": 127.11016,
      "name": "분당봄약국"
    },
    {
      "lat": 37.32678,
      "lon": 127.10924,
      "name": "죽전열린약국"
    },
    {
      "lat": 37.35045,
      "lon": 127.10833,
      "name": "365그린약국"
    },
    {
      "lat": 37.45052,
      "lon": 127.12968,
      "name": "보건진료소"
    },
    {
      "lat": 37.47827,
      "lon": 127.12582,
      "name": "가든파이브약국"
    },
    {
      "lat": 37.461,
      "lon": 127.16867,
      "name": "월드옵티마약국"
    },
    {
      "lat": 37.4323,
      "lon": 127.12946,
      "name": "새모란21세기약국"
    },
    {
      "lat": 37.35956,
      "lon": 127.10661,
      "name": "분당그린약국"
    },
    {
      "lat": 37.36627,
      "lon": 127.15948,
      "name": "신현약국"
    },
    {
      "lat": 37.40224,
      "lon": 127.11026,
      "name": "판교제일이비인후과 내과 피부과"
    },
    {
      "lat": 37.38984,
      "lon": 127.0899,
      "name": "판교이화약국"
    },
    {
      "lat": 37.41219,
      "lon": 127.12988,
      "name": "분당베스트병원"
    },
    {
      "lat": 37.44537,
      "lon": 127.16192,
      "name": "신중앙메디칼온누리약국"
    },
    {
      "lat": 37.43448,
      "lon": 127.12832,
      "name": "성모윌병원"
    },
    {
      "lat": 37.46641,
      "lon": 127.09974,
      "name": "네이처요양병원"
    },
    {
      "lat": 37.32985,
      "lon": 127.09234,
      "name": "솔빛내과의원"
    },
    {
      "lat": 37.32323,
      "lon": 127.07735,
      "name": "맑은샘약국"
    },
    {
      "lat": 37.32374,
      "lon": 127.09538,
      "name": "수지한림약국"
    },
    {
      "lat": 37.32384,
      "lon": 127.09527,
      "name": "메디플러스약국"
    },
    {
      "lat": 37.32449,
      "lon": 127.09471,
      "name": "온누리약국"
    },
    {
      "lat": 37.32333,
      "lon": 127.09567,
      "name": "썬프라자약국"
    },
    {
      "lat": 37.47837,
      "lon": 127.0555,
      "name": "곰돌이약국"
    }
  ],
  "school": [
    {
      "lat": 37.33123,
      "lon": 127.11699,
      "name": ""
    },
    {
      "lat": 37.32613,
      "lon": 127.09958,
      "name": "아이유치원"
    },
    {
      "lat": 37.3371,
      "lon": 127.1047,
      "name": "나리유치원"
    },
    {
      "lat": 37.33214,
      "lon": 127.10037,
      "name": "다솜유치원"
    },
    {
      "lat": 37.32813,
      "lon": 127.09356,
      "name": "하나유치원"
    },
    {
      "lat": 37.32496,
      "lon": 127.09438,
      "name": "현대유치원"
    },
    {
      "lat": 37.32702,
      "lon": 127.09868,
      "name": "한국유치원"
    },
    {
      "lat": 37.32467,
      "lon": 127.09318,
      "name": "이레유치원"
    },
    {
      "lat": 37.3295,
      "lon": 127.10934,
      "name": ""
    },
    {
      "lat": 37.32777,
      "lon": 127.09216,
      "name": "예인유치원"
    },
    {
      "lat": 37.32653,
      "lon": 127.11683,
      "name": ""
    },
    {
      "lat": 37.33235,
      "lon": 127.05309,
      "name": "수지다예린유치원"
    },
    {
      "lat": 37.32071,
      "lon": 127.08863,
      "name": "정평초등학교"
    },
    {
      "lat": 37.32777,
      "lon": 127.11837,
      "name": ""
    },
    {
      "lat": 37.44145,
      "lon": 127.1689,
      "name": "선경어린이집"
    },
    {
      "lat": 37.33272,
      "lon": 127.09508,
      "name": "아이큰별어린이집"
    },
    {
      "lat": 37.40227,
      "lon": 127.11643,
      "name": "삼평유치원"
    },
    {
      "lat": 37.38824,
      "lon": 127.11425,
      "name": "희영유치원"
    },
    {
      "lat": 37.44359,
      "lon": 127.13497,
      "name": "은서유치원"
    },
    {
      "lat": 37.43268,
      "lon": 127.15092,
      "name": "새싹들 어린이집"
    },
    {
      "lat": 37.3609,
      "lon": 127.11203,
      "name": "은혜유치원"
    },
    {
      "lat": 37.46397,
      "lon": 127.10626,
      "name": "오즈의마법사유치원"
    },
    {
      "lat": 37.3481,
      "lon": 127.17976,
      "name": "자연키즈랜드"
    },
    {
      "lat": 37.46621,
      "lon": 127.12905,
      "name": "서울국제학교"
    },
    {
      "lat": 37.34137,
      "lon": 127.1726,
      "name": "중앙유치원"
    },
    {
      "lat": 37.33383,
      "lon": 127.10662,
      "name": "대현초등학교 병설유치원"
    },
    {
      "lat": 37.36831,
      "lon": 127.12959,
      "name": "샛별중학교"
    },
    {
      "lat": 37.46782,
      "lon": 127.13816,
      "name": "은솔유치원"
    },
    {
      "lat": 37.43905,
      "lon": 127.13763,
      "name": "성체유치원"
    },
    {
      "lat": 37.44702,
      "lon": 127.13396,
      "name": "이화유치원"
    },
    {
      "lat": 37.35965,
      "lon": 127.16097,
      "name": "광명초등학교"
    },
    {
      "lat": 37.40348,
      "lon": 127.15294,
      "name": "야탑고등학교"
    },
    {
      "lat": 37.39216,
      "lon": 127.13175,
      "name": "송림중학교"
    },
    {
      "lat": 37.39909,
      "lon": 127.10927,
      "name": "판교테크노어린이집"
    },
    {
      "lat": 37.47139,
      "lon": 127.10063,
      "name": "풍문고등학교"
    },
    {
      "lat": 37.44994,
      "lon": 127.1673,
      "name": "신구대현장"
    },
    {
      "lat": 37.34549,
      "lon": 127.1752,
      "name": "능평어린이집"
    },
    {
      "lat": 37.37081,
      "lon": 127.14041,
      "name": "장안유치원"
    },
    {
      "lat": 37.32122,
      "lon": 127.07638,
      "name": "홍천중학교"
    },
    {
      "lat": 37.32854,
      "lon": 127.07563,
      "name": "아기사랑 어린이집"
    },
    {
      "lat": 37.32349,
      "lon": 127.08188,
      "name": "한화꿈에그린어린이집"
    },
    {
      "lat": 37.47477,
      "lon": 127.11021,
      "name": "세곡나비 어린이집"
    },
    {
      "lat": 37.40382,
      "lon": 127.1257,
      "name": "꾸러기유치원"
    },
    {
      "lat": 37.47406,
      "lon": 127.10177,
      "name": "자곡어린이집"
    },
    {
      "lat": 37.3906,
      "lon": 127.09796,
      "name": "해나유치원"
    },
    {
      "lat": 37.45953,
      "lon": 127.12867,
      "name": "1호관 정문"
    },
    {
      "lat": 37.45948,
      "lon": 127.12888,
      "name": "1호관 후문"
    },
    {
      "lat": 37.45861,
      "lon": 127.129,
      "name": "2호관 학교식당"
    },
    {
      "lat": 37.46037,
      "lon": 127.12861,
      "name": "본관정문"
    },
    {
      "lat": 37.46014,
      "lon": 127.1288,
      "name": "본관쪽문"
    },
    {
      "lat": 37.4603,
      "lon": 127.12846,
      "name": "본관후문"
    },
    {
      "lat": 37.46057,
      "lon": 127.12918,
      "name": "지하햄버거집"
    },
    {
      "lat": 37.46083,
      "lon": 127.12954,
      "name": "10호관,3호관 출입문"
    },
    {
      "lat": 37.4609,
      "lon": 127.12931,
      "name": "10호관 지하출입문"
    },
    {
      "lat": 37.46069,
      "lon": 127.12964,
      "name": "3호관 입구"
    },
    {
      "lat": 37.46027,
      "lon": 127.12921,
      "name": "6호관 입구"
    },
    {
      "lat": 37.4604,
      "lon": 127.12941,
      "name": "6호관 쪽문"
    },
    {
      "lat": 37.45825,
      "lon": 127.12837,
      "name": "학생회관 정문"
    },
    {
      "lat": 37.45911,
      "lon": 127.12926,
      "name": "8호관 옆문"
    },
    {
      "lat": 37.4584,
      "lon": 127.12934,
      "name": "8호관 옆문2"
    },
    {
      "lat": 37.45853,
      "lon": 127.12926,
      "name": "8호관 정문2"
    },
    {
      "lat": 37.45872,
      "lon": 127.12924,
      "name": "8호관 정문"
    },
    {
      "lat": 37.45813,
      "lon": 127.12918,
      "name": "2호관 쪽문2"
    },
    {
      "lat": 37.45907,
      "lon": 127.12886,
      "name": "1호관 쪽문"
    },
    {
      "lat": 37.459,
      "lon": 127.12889,
      "name": "2호관 쪽문"
    },
    {
      "lat": 37.46033,
      "lon": 127.12979,
      "name": "6호관 후문"
    },
    {
      "lat": 37.46003,
      "lon": 127.12975,
      "name": "도서관 후문"
    },
    {
      "lat": 37.46002,
      "lon": 127.12934,
      "name": "도서관 옆문"
    },
    {
      "lat": 37.45989,
      "lon": 127.12919,
      "name": "도서관 엘리베이터"
    },
    {
      "lat": 37.45952,
      "lon": 127.12924,
      "name": "도서관 계단"
    },
    {
      "lat": 37.46008,
      "lon": 127.13013,
      "name": "9호관 부출입문"
    },
    {
      "lat": 37.46036,
      "lon": 127.1302,
      "name": "5호관 정문"
    },
    {
      "lat": 37.46042,
      "lon": 127.13081,
      "name": "5호관 후문"
    },
    {
      "lat": 37.46018,
      "lon": 127.13045,
      "name": "9호관 정문"
    },
    {
      "lat": 37.46021,
      "lon": 127.13079,
      "name": "9호관 쪽문"
    },
    {
      "lat": 37.4607,
      "lon": 127.12992,
      "name": "3호관 구름다리"
    },
    {
      "lat": 37.45996,
      "lon": 127.12873,
      "name": "1호관 옆문"
    },
    {
      "lat": 37.45824,
      "lon": 127.1286,
      "name": "학생회관 몊문"
    },
    {
      "lat": 37.45818,
      "lon": 127.12812,
      "name": "학생회관 옆문2"
    },
    {
      "lat": 37.45784,
      "lon": 127.12804,
      "name": "기숙사동 입구"
    },
    {
      "lat": 37.45767,
      "lon": 127.12841,
      "name": "교류센터  정문"
    }
  ],
  "subway": [
    {
      "lat": 37.36594,
      "lon": 127.10779,
      "name": ""
    },
    {
      "lat": 37.3664,
      "lon": 127.10779,
      "name": ""
    },
    {
      "lat": 37.47876,
      "lon": 127.12642,
      "name": ""
    },
    {
      "lat": 37.47854,
      "lon": 127.12653,
      "name": ""
    },
    {
      "lat": 37.47858,
      "lon": 127.12587,
      "name": ""
    },
    {
      "lat": 37.47833,
      "lon": 127.12607,
      "name": ""
    },
    {
      "lat": 37.47153,
      "lon": 127.12702,
      "name": ""
    },
    {
      "lat": 37.47144,
      "lon": 127.12648,
      "name": ""
    },
    {
      "lat": 37.47105,
      "lon": 127.12639,
      "name": ""
    },
    {
      "lat": 37.47022,
      "lon": 127.12692,
      "name": ""
    },
    {
      "lat": 37.45557,
      "lon": 127.14974,
      "name": ""
    },
    {
      "lat": 37.45592,
      "lon": 127.15029,
      "name": ""
    },
    {
      "lat": 37.45568,
      "lon": 127.15011,
      "name": ""
    },
    {
      "lat": 37.45235,
      "lon": 127.15998,
      "name": ""
    },
    {
      "lat": 37.45227,
      "lon": 127.1603,
      "name": ""
    },
    {
      "lat": 37.45177,
      "lon": 127.16023,
      "name": ""
    },
    {
      "lat": 37.45188,
      "lon": 127.15968,
      "name": ""
    },
    {
      "lat": 37.44541,
      "lon": 127.15742,
      "name": ""
    },
    {
      "lat": 37.44496,
      "lon": 127.15709,
      "name": ""
    },
    {
      "lat": 37.4445,
      "lon": 127.15655,
      "name": ""
    },
    {
      "lat": 37.44497,
      "lon": 127.1563,
      "name": ""
    },
    {
      "lat": 37.44541,
      "lon": 127.15631,
      "name": ""
    },
    {
      "lat": 37.44551,
      "lon": 127.15656,
      "name": ""
    },
    {
      "lat": 37.44567,
      "lon": 127.15683,
      "name": ""
    },
    {
      "lat": 37.44084,
      "lon": 127.14806,
      "name": ""
    },
    {
      "lat": 37.44062,
      "lon": 127.14744,
      "name": ""
    },
    {
      "lat": 37.44121,
      "lon": 127.14764,
      "name": ""
    },
    {
      "lat": 37.44109,
      "lon": 127.14727,
      "name": ""
    },
    {
      "lat": 37.43793,
      "lon": 127.14103,
      "name": ""
    },
    {
      "lat": 37.43764,
      "lon": 127.14044,
      "name": ""
    },
    {
      "lat": 37.43721,
      "lon": 127.14096,
      "name": ""
    },
    {
      "lat": 37.43741,
      "lon": 127.14137,
      "name": ""
    },
    {
      "lat": 37.43294,
      "lon": 127.12919,
      "name": ""
    },
    {
      "lat": 37.4324,
      "lon": 127.12927,
      "name": ""
    },
    {
      "lat": 37.43284,
      "lon": 127.12883,
      "name": ""
    },
    {
      "lat": 37.43232,
      "lon": 127.12891,
      "name": ""
    },
    {
      "lat": 37.43121,
      "lon": 127.12946,
      "name": ""
    },
    {
      "lat": 37.43173,
      "lon": 127.12936,
      "name": ""
    },
    {
      "lat": 37.43172,
      "lon": 127.12897,
      "name": ""
    },
    {
      "lat": 37.43124,
      "lon": 127.12905,
      "name": ""
    },
    {
      "lat": 37.43398,
      "lon": 127.12856,
      "name": ""
    },
    {
      "lat": 37.43399,
      "lon": 127.12907,
      "name": ""
    },
    {
      "lat": 37.43401,
      "lon": 127.12964,
      "name": ""
    },
    {
      "lat": 37.33936,
      "lon": 127.10873,
      "name": ""
    },
    {
      "lat": 37.33949,
      "lon": 127.10855,
      "name": ""
    },
    {
      "lat": 37.33983,
      "lon": 127.10838,
      "name": ""
    },
    {
      "lat": 37.33997,
      "lon": 127.10939,
      "name": ""
    },
    {
      "lat": 37.33953,
      "lon": 127.10917,
      "name": ""
    },
    {
      "lat": 37.34059,
      "lon": 127.10938,
      "name": ""
    },
    {
      "lat": 37.34062,
      "lon": 127.10873,
      "name": ""
    },
    {
      "lat": 37.32477,
      "lon": 127.10721,
      "name": ""
    },
    {
      "lat": 37.32494,
      "lon": 127.10764,
      "name": ""
    },
    {
      "lat": 37.32543,
      "lon": 127.10739,
      "name": ""
    },
    {
      "lat": 37.34944,
      "lon": 127.1086,
      "name": ""
    },
    {
      "lat": 37.34981,
      "lon": 127.10821,
      "name": ""
    },
    {
      "lat": 37.3502,
      "lon": 127.10955,
      "name": ""
    },
    {
      "lat": 37.35052,
      "lon": 127.10914,
      "name": ""
    },
    {
      "lat": 37.35052,
      "lon": 127.10867,
      "name": ""
    },
    {
      "lat": 37.34984,
      "lon": 127.10955,
      "name": ""
    },
    {
      "lat": 37.34952,
      "lon": 127.10915,
      "name": ""
    },
    {
      "lat": 37.35018,
      "lon": 127.10822,
      "name": ""
    },
    {
      "lat": 37.36622,
      "lon": 127.10841,
      "name": ""
    },
    {
      "lat": 37.36605,
      "lon": 127.10841,
      "name": ""
    },
    {
      "lat": 37.36819,
      "lon": 127.10789,
      "name": ""
    },
    {
      "lat": 37.37859,
      "lon": 127.11472,
      "name": ""
    },
    {
      "lat": 37.37873,
      "lon": 127.11455,
      "name": ""
    },
    {
      "lat": 37.37817,
      "lon": 127.11375,
      "name": ""
    },
    {
      "lat": 37.37801,
      "lon": 127.11394,
      "name": ""
    },
    {
      "lat": 37.38455,
      "lon": 127.12312,
      "name": ""
    },
    {
      "lat": 37.38427,
      "lon": 127.1241,
      "name": ""
    },
    {
      "lat": 37.38475,
      "lon": 127.12288,
      "name": ""
    },
    {
      "lat": 37.3852,
      "lon": 127.12353,
      "name": ""
    },
    {
      "lat": 37.385,
      "lon": 127.12372,
      "name": ""
    },
    {
      "lat": 37.39443,
      "lon": 127.1288,
      "name": ""
    },
    {
      "lat": 37.39479,
      "lon": 127.12773,
      "name": ""
    },
    {
      "lat": 37.39506,
      "lon": 127.12796,
      "name": ""
    },
    {
      "lat": 37.39735,
      "lon": 127.12817,
      "name": ""
    },
    {
      "lat": 37.39749,
      "lon": 127.12877,
      "name": ""
    },
    {
      "lat": 37.39715,
      "lon": 127.12866,
      "name": ""
    },
    {
      "lat": 37.41196,
      "lon": 127.12838,
      "name": ""
    },
    {
      "lat": 37.41204,
      "lon": 127.12898,
      "name": ""
    },
    {
      "lat": 37.4114,
      "lon": 127.12916,
      "name": ""
    },
    {
      "lat": 37.4113,
      "lon": 127.12823,
      "name": ""
    },
    {
      "lat": 37.43343,
      "lon": 127.12952,
      "name": "모란역 12번 출구"
    },
    {
      "lat": 37.44009,
      "lon": 127.12738,
      "name": ""
    },
    {
      "lat": 37.44018,
      "lon": 127.12796,
      "name": ""
    },
    {
      "lat": 37.43995,
      "lon": 127.12812,
      "name": ""
    },
    {
      "lat": 37.43969,
      "lon": 127.12809,
      "name": ""
    },
    {
      "lat": 37.43935,
      "lon": 127.12809,
      "name": ""
    },
    {
      "lat": 37.43909,
      "lon": 127.1275,
      "name": ""
    },
    {
      "lat": 37.44832,
      "lon": 127.12635,
      "name": ""
    },
    {
      "lat": 37.44913,
      "lon": 127.12635,
      "name": ""
    },
    {
      "lat": 37.44957,
      "lon": 127.12686,
      "name": ""
    },
    {
      "lat": 37.44849,
      "lon": 127.12696,
      "name": ""
    },
    {
      "lat": 37.44765,
      "lon": 127.12702,
      "name": ""
    },
    {
      "lat": 37.39484,
      "lon": 127.11036,
      "name": ""
    },
    {
      "lat": 37.39535,
      "lon": 127.11149,
      "name": ""
    },
    {
      "lat": 37.39457,
      "lon": 127.11181,
      "name": ""
    },
    {
      "lat": 37.39416,
      "lon": 127.11094,
      "name": ""
    },
    {
      "lat": 37.44895,
      "lon": 127.05429,
      "name": ""
    },
    {
      "lat": 37.44769,
      "lon": 127.05499,
      "name": ""
    },
    {
      "lat": 37.32353,
      "lon": 127.09458,
      "name": "수지구청역 3번 출입구"
    },
    {
      "lat": 37.32228,
      "lon": 127.09455,
      "name": ""
    },
    {
      "lat": 37.32299,
      "lon": 127.09526,
      "name": ""
    },
    {
      "lat": 37.32277,
      "lon": 127.09546,
      "name": ""
    },
    {
      "lat": 37.33777,
      "lon": 127.10303,
      "name": ""
    },
    {
      "lat": 37.33774,
      "lon": 127.10259,
      "name": ""
    },
    {
      "lat": 37.33858,
      "lon": 127.10258,
      "name": ""
    },
    {
      "lat": 37.47058,
      "lon": 127.12671,
      "name": "복정"
    },
    {
      "lat": 37.36713,
      "lon": 127.10836,
      "name": ""
    },
    {
      "lat": 37.39464,
      "lon": 127.1284,
      "name": "이매"
    },
    {
      "lat": 37.39438,
      "lon": 127.12797,
      "name": ""
    },
    {
      "lat": 37.39473,
      "lon": 127.12691,
      "name": ""
    },
    {
      "lat": 37.39457,
      "lon": 127.12691,
      "name": ""
    },
    {
      "lat": 37.43374,
      "lon": 127.12915,
      "name": "모란"
    },
    {
      "lat": 37.43744,
      "lon": 127.14069,
      "name": "수진"
    },
    {
      "lat": 37.44508,
      "lon": 127.15678,
      "name": "단대오거리"
    },
    {
      "lat": 37.45155,
      "lon": 127.15981,
      "name": "남한산성입구"
    },
    {
      "lat": 37.45687,
      "lon": 127.14993,
      "name": "산성"
    },
    {
      "lat": 37.46277,
      "lon": 127.13922,
      "name": "남위례"
    },
    {
      "lat": 37.47889,
      "lon": 127.12607,
      "name": "장지"
    },
    {
      "lat": 37.46297,
      "lon": 127.13964,
      "name": ""
    },
    {
      "lat": 37.46334,
      "lon": 127.13909,
      "name": ""
    },
    {
      "lat": 37.32247,
      "lon": 127.09435,
      "name": ""
    },
    {
      "lat": 37.39374,
      "lon": 127.12024,
      "name": ""
    },
    {
      "lat": 37.39462,
      "lon": 127.12137,
      "name": ""
    },
    {
      "lat": 37.3949,
      "lon": 127.12001,
      "name": ""
    },
    {
      "lat": 37.39483,
      "lon": 127.11942,
      "name": ""
    },
    {
      "lat": 37.39481,
      "lon": 127.11869,
      "name": ""
    }
  ],
  "commercial": [
    {
      "lat": 37.47782,
      "lon": 127.12518,
      "name": "가든파이브 라이프"
    },
    {
      "lat": 37.47763,
      "lon": 127.12268,
      "name": "가든파이브 웍스"
    },
    {
      "lat": 37.31955,
      "lon": 127.08831,
      "name": ""
    },
    {
      "lat": 37.32162,
      "lon": 127.1103,
      "name": "보정동카페거리"
    },
    {
      "lat": 37.40432,
      "lon": 127.11549,
      "name": ""
    },
    {
      "lat": 37.40383,
      "lon": 127.11595,
      "name": ""
    },
    {
      "lat": 37.38838,
      "lon": 127.11509,
      "name": ""
    },
    {
      "lat": 37.38185,
      "lon": 127.11277,
      "name": ""
    },
    {
      "lat": 37.39729,
      "lon": 127.11133,
      "name": ""
    },
    {
      "lat": 37.36555,
      "lon": 127.12727,
      "name": "옷가게"
    },
    {
      "lat": 37.44429,
      "lon": 127.14141,
      "name": "신세계 쉐덴"
    },
    {
      "lat": 37.44199,
      "lon": 127.14277,
      "name": ""
    },
    {
      "lat": 37.44042,
      "lon": 127.14452,
      "name": ""
    },
    {
      "lat": 37.3382,
      "lon": 127.17702,
      "name": ""
    },
    {
      "lat": 37.33469,
      "lon": 127.10992,
      "name": "Cu편의점 수지점"
    },
    {
      "lat": 37.46169,
      "lon": 127.15603,
      "name": "닭죽촌"
    },
    {
      "lat": 37.37289,
      "lon": 127.10122,
      "name": "BMW 한독모터스 분당서비스센터"
    },
    {
      "lat": 37.36898,
      "lon": 127.101,
      "name": "폭스바겐 아우토플라츠 판교전시장"
    },
    {
      "lat": 37.38693,
      "lon": 127.11513,
      "name": "tripledesign"
    },
    {
      "lat": 37.36247,
      "lon": 127.10661,
      "name": ""
    },
    {
      "lat": 37.37693,
      "lon": 127.10527,
      "name": ""
    },
    {
      "lat": 37.40444,
      "lon": 127.10059,
      "name": ""
    },
    {
      "lat": 37.40443,
      "lon": 127.09891,
      "name": ""
    },
    {
      "lat": 37.40511,
      "lon": 127.09947,
      "name": ""
    },
    {
      "lat": 37.40384,
      "lon": 127.10001,
      "name": ""
    },
    {
      "lat": 37.40519,
      "lon": 127.09776,
      "name": ""
    },
    {
      "lat": 37.40561,
      "lon": 127.10023,
      "name": ""
    },
    {
      "lat": 37.40539,
      "lon": 127.10064,
      "name": ""
    },
    {
      "lat": 37.40449,
      "lon": 127.09766,
      "name": ""
    },
    {
      "lat": 37.40516,
      "lon": 127.10105,
      "name": ""
    },
    {
      "lat": 37.40363,
      "lon": 127.09847,
      "name": ""
    },
    {
      "lat": 37.40582,
      "lon": 127.09816,
      "name": ""
    },
    {
      "lat": 37.40492,
      "lon": 127.10146,
      "name": ""
    },
    {
      "lat": 37.40609,
      "lon": 127.09932,
      "name": ""
    },
    {
      "lat": 37.40416,
      "lon": 127.10268,
      "name": ""
    },
    {
      "lat": 37.40584,
      "lon": 127.09983,
      "name": ""
    },
    {
      "lat": 37.40394,
      "lon": 127.09814,
      "name": ""
    },
    {
      "lat": 37.40333,
      "lon": 127.10094,
      "name": ""
    },
    {
      "lat": 37.4062,
      "lon": 127.09866,
      "name": ""
    },
    {
      "lat": 37.40041,
      "lon": 127.1014,
      "name": ""
    },
    {
      "lat": 37.40127,
      "lon": 127.10313,
      "name": ""
    },
    {
      "lat": 37.40263,
      "lon": 127.10202,
      "name": ""
    },
    {
      "lat": 37.40212,
      "lon": 127.10023,
      "name": ""
    },
    {
      "lat": 37.40226,
      "lon": 127.10059,
      "name": ""
    },
    {
      "lat": 37.40205,
      "lon": 127.10356,
      "name": ""
    },
    {
      "lat": 37.40252,
      "lon": 127.10146,
      "name": ""
    },
    {
      "lat": 37.40063,
      "lon": 127.10456,
      "name": ""
    },
    {
      "lat": 37.40272,
      "lon": 127.10293,
      "name": ""
    },
    {
      "lat": 37.4004,
      "lon": 127.10313,
      "name": ""
    },
    {
      "lat": 37.40274,
      "lon": 127.10367,
      "name": ""
    },
    {
      "lat": 37.40237,
      "lon": 127.10094,
      "name": ""
    },
    {
      "lat": 37.4016,
      "lon": 127.1011,
      "name": ""
    },
    {
      "lat": 37.40363,
      "lon": 127.10737,
      "name": ""
    },
    {
      "lat": 37.40634,
      "lon": 127.10333,
      "name": ""
    },
    {
      "lat": 37.4046,
      "lon": 127.10997,
      "name": ""
    },
    {
      "lat": 37.40485,
      "lon": 127.1113,
      "name": ""
    },
    {
      "lat": 37.40606,
      "lon": 127.10256,
      "name": ""
    },
    {
      "lat": 37.40368,
      "lon": 127.1061,
      "name": ""
    },
    {
      "lat": 37.40468,
      "lon": 127.1063,
      "name": ""
    },
    {
      "lat": 37.40655,
      "lon": 127.10163,
      "name": ""
    },
    {
      "lat": 37.40363,
      "lon": 127.10826,
      "name": ""
    },
    {
      "lat": 37.4037,
      "lon": 127.11035,
      "name": ""
    },
    {
      "lat": 37.40363,
      "lon": 127.10682,
      "name": ""
    },
    {
      "lat": 37.40414,
      "lon": 127.10502,
      "name": ""
    },
    {
      "lat": 37.40391,
      "lon": 127.11166,
      "name": ""
    },
    {
      "lat": 37.40062,
      "lon": 127.10807,
      "name": ""
    },
    {
      "lat": 37.40012,
      "lon": 127.10921,
      "name": ""
    },
    {
      "lat": 37.40207,
      "lon": 127.10865,
      "name": ""
    },
    {
      "lat": 37.40012,
      "lon": 127.10874,
      "name": ""
    },
    {
      "lat": 37.40088,
      "lon": 127.10807,
      "name": ""
    },
    {
      "lat": 37.40063,
      "lon": 127.10685,
      "name": ""
    },
    {
      "lat": 37.40277,
      "lon": 127.10737,
      "name": ""
    },
    {
      "lat": 37.40043,
      "lon": 127.10923,
      "name": ""
    },
    {
      "lat": 37.40043,
      "lon": 127.10874,
      "name": ""
    },
    {
      "lat": 37.40278,
      "lon": 127.10808,
      "name": ""
    },
    {
      "lat": 37.40008,
      "lon": 127.10807,
      "name": ""
    },
    {
      "lat": 37.40128,
      "lon": 127.10865,
      "name": ""
    },
    {
      "lat": 37.40036,
      "lon": 127.10807,
      "name": ""
    },
    {
      "lat": 37.40206,
      "lon": 127.10662,
      "name": ""
    },
    {
      "lat": 37.40073,
      "lon": 127.10923,
      "name": ""
    },
    {
      "lat": 37.40278,
      "lon": 127.1089,
      "name": ""
    },
    {
      "lat": 37.40073,
      "lon": 127.10874,
      "name": ""
    },
    {
      "lat": 37.39938,
      "lon": 127.10918,
      "name": ""
    },
    {
      "lat": 37.39939,
      "lon": 127.1086,
      "name": ""
    },
    {
      "lat": 37.39939,
      "lon": 127.10807,
      "name": ""
    },
    {
      "lat": 37.40279,
      "lon": 127.11146,
      "name": ""
    },
    {
      "lat": 37.40278,
      "lon": 127.11073,
      "name": ""
    },
    {
      "lat": 37.40239,
      "lon": 127.11216,
      "name": ""
    },
    {
      "lat": 37.40207,
      "lon": 127.11044,
      "name": ""
    },
    {
      "lat": 37.40277,
      "lon": 127.11017,
      "name": ""
    },
    {
      "lat": 37.40042,
      "lon": 127.11044,
      "name": ""
    },
    {
      "lat": 37.40076,
      "lon": 127.11221,
      "name": ""
    },
    {
      "lat": 37.40129,
      "lon": 127.11044,
      "name": ""
    },
    {
      "lat": 37.36613,
      "lon": 127.10698,
      "name": ""
    },
    {
      "lat": 37.32926,
      "lon": 127.15652,
      "name": ""
    },
    {
      "lat": 37.33294,
      "lon": 127.16017,
      "name": ""
    },
    {
      "lat": 37.47291,
      "lon": 127.14997,
      "name": ""
    },
    {
      "lat": 37.47302,
      "lon": 127.14275,
      "name": ""
    },
    {
      "lat": 37.37176,
      "lon": 127.10219,
      "name": ""
    },
    {
      "lat": 37.3714,
      "lon": 127.10219,
      "name": ""
    },
    {
      "lat": 37.37213,
      "lon": 127.10225,
      "name": ""
    },
    {
      "lat": 37.37244,
      "lon": 127.10223,
      "name": ""
    },
    {
      "lat": 37.37283,
      "lon": 127.10222,
      "name": ""
    },
    {
      "lat": 37.37321,
      "lon": 127.10218,
      "name": ""
    },
    {
      "lat": 37.37355,
      "lon": 127.10216,
      "name": ""
    },
    {
      "lat": 37.45127,
      "lon": 127.14862,
      "name": ""
    },
    {
      "lat": 37.38048,
      "lon": 127.10499,
      "name": ""
    },
    {
      "lat": 37.3274,
      "lon": 127.09638,
      "name": "수지외식타운"
    }
  ],
  "park": [
    {
      "lat": 37.47957,
      "lon": 127.12154,
      "name": "글샘공원"
    },
    {
      "lat": 37.45159,
      "lon": 127.17072,
      "name": "자혜공원"
    },
    {
      "lat": 37.44383,
      "lon": 127.15833,
      "name": "금광소공원"
    },
    {
      "lat": 37.4529,
      "lon": 127.16563,
      "name": "노루목공원"
    },
    {
      "lat": 37.45405,
      "lon": 127.16932,
      "name": "은행근린공원"
    },
    {
      "lat": 37.45538,
      "lon": 127.17054,
      "name": "은행근린공원"
    },
    {
      "lat": 37.44738,
      "lon": 127.151,
      "name": "희망대공원"
    },
    {
      "lat": 37.45439,
      "lon": 127.15589,
      "name": "단대공원"
    },
    {
      "lat": 37.4603,
      "lon": 127.16219,
      "name": "양지체육공원"
    },
    {
      "lat": 37.47882,
      "lon": 127.05296,
      "name": "달터근린공원"
    },
    {
      "lat": 37.44393,
      "lon": 127.17408,
      "name": "황송공원"
    },
    {
      "lat": 37.41772,
      "lon": 127.15313,
      "name": "섬말공원"
    },
    {
      "lat": 37.37852,
      "lon": 127.15036,
      "name": "율동공원"
    },
    {
      "lat": 37.41082,
      "lon": 127.14132,
      "name": "상희공원"
    },
    {
      "lat": 37.41169,
      "lon": 127.13629,
      "name": ""
    },
    {
      "lat": 37.41177,
      "lon": 127.12816,
      "name": "야탑역 광장"
    },
    {
      "lat": 37.36613,
      "lon": 127.10751,
      "name": ""
    },
    {
      "lat": 37.46559,
      "lon": 127.08207,
      "name": "서울 헌릉과 인릉"
    },
    {
      "lat": 37.32947,
      "lon": 127.06648,
      "name": "신봉체육공원"
    },
    {
      "lat": 37.33467,
      "lon": 127.09633,
      "name": "동천체육공원"
    },
    {
      "lat": 37.33738,
      "lon": 127.09548,
      "name": "손곡어린이공원"
    },
    {
      "lat": 37.32927,
      "lon": 127.09745,
      "name": "수지체육공원"
    },
    {
      "lat": 37.32902,
      "lon": 127.09456,
      "name": "새마을공원"
    },
    {
      "lat": 37.32401,
      "lon": 127.09098,
      "name": "수지근린공원"
    },
    {
      "lat": 37.32699,
      "lon": 127.10575,
      "name": ""
    },
    {
      "lat": 37.33194,
      "lon": 127.1005,
      "name": "독골공원"
    },
    {
      "lat": 37.31973,
      "lon": 127.09422,
      "name": "신정공원"
    },
    {
      "lat": 37.32051,
      "lon": 127.08779,
      "name": "별빛공원"
    },
    {
      "lat": 37.32708,
      "lon": 127.06512,
      "name": "도마치 어린이공원"
    },
    {
      "lat": 37.3292,
      "lon": 127.06992,
      "name": "양지말 어린이공원"
    },
    {
      "lat": 37.33499,
      "lon": 127.08866,
      "name": "동천2 어린이공원"
    },
    {
      "lat": 37.3341,
      "lon": 127.09078,
      "name": "동천3 어린이공원"
    },
    {
      "lat": 37.32185,
      "lon": 127.07827,
      "name": "홍천말근린공원"
    },
    {
      "lat": 37.32296,
      "lon": 127.09701,
      "name": "토월공원"
    },
    {
      "lat": 37.47427,
      "lon": 127.05245,
      "name": "목련어린이공원"
    },
    {
      "lat": 37.32316,
      "lon": 127.11208,
      "name": "푸르내공원"
    },
    {
      "lat": 37.32291,
      "lon": 127.11013,
      "name": "엑스파크공원"
    },
    {
      "lat": 37.4729,
      "lon": 127.09771,
      "name": ""
    },
    {
      "lat": 37.37706,
      "lon": 127.12442,
      "name": "중앙공원"
    },
    {
      "lat": 37.32289,
      "lon": 127.10135,
      "name": "풍덕공원"
    },
    {
      "lat": 37.32382,
      "lon": 127.09916,
      "name": "풍덕천공원"
    },
    {
      "lat": 37.32412,
      "lon": 127.097,
      "name": "수풍소공원"
    },
    {
      "lat": 37.47914,
      "lon": 127.12445,
      "name": ""
    },
    {
      "lat": 37.39474,
      "lon": 127.11491,
      "name": ""
    },
    {
      "lat": 37.39487,
      "lon": 127.11773,
      "name": "나들이공원"
    },
    {
      "lat": 37.39476,
      "lon": 127.11936,
      "name": ""
    },
    {
      "lat": 37.33111,
      "lon": 127.12378,
      "name": "죽전새터공원"
    },
    {
      "lat": 37.3338,
      "lon": 127.12443,
      "name": "무지개공원"
    },
    {
      "lat": 37.33428,
      "lon": 127.11968,
      "name": "새터어린이공원"
    },
    {
      "lat": 37.32996,
      "lon": 127.12556,
      "name": "방아공원"
    },
    {
      "lat": 37.32982,
      "lon": 127.11684,
      "name": ""
    },
    {
      "lat": 37.41182,
      "lon": 127.13225,
      "name": "야탑1동공영주차장"
    },
    {
      "lat": 37.38889,
      "lon": 127.116,
      "name": "숲안어린이공원"
    },
    {
      "lat": 37.41471,
      "lon": 127.13063,
      "name": "하늘 어린이공원"
    },
    {
      "lat": 37.41213,
      "lon": 127.16253,
      "name": "이왕이공원"
    },
    {
      "lat": 37.39838,
      "lon": 127.11851,
      "name": "저류지"
    },
    {
      "lat": 37.39948,
      "lon": 127.11829,
      "name": "봇들어린이공원"
    },
    {
      "lat": 37.41454,
      "lon": 127.126,
      "name": "꿈동산어린이공원"
    },
    {
      "lat": 37.40179,
      "lon": 127.1149,
      "name": ""
    },
    {
      "lat": 37.40214,
      "lon": 127.11814,
      "name": ""
    },
    {
      "lat": 37.40916,
      "lon": 127.11692,
      "name": "송현공원"
    },
    {
      "lat": 37.40646,
      "lon": 127.12328,
      "name": "종달새어린이공원"
    },
    {
      "lat": 37.40252,
      "lon": 127.12297,
      "name": "아름어린이공원"
    },
    {
      "lat": 37.47019,
      "lon": 127.09835,
      "name": "세곡공원"
    },
    {
      "lat": 37.35731,
      "lon": 127.1102,
      "name": "금곡공원"
    },
    {
      "lat": 37.39763,
      "lon": 127.12296,
      "name": "매송어린이공원"
    },
    {
      "lat": 37.39226,
      "lon": 127.12506,
      "name": ""
    },
    {
      "lat": 37.39306,
      "lon": 127.12183,
      "name": "이매길어린이공원"
    },
    {
      "lat": 37.38983,
      "lon": 127.12561,
      "name": "누엣길어린이공원"
    },
    {
      "lat": 37.38413,
      "lon": 127.11842,
      "name": "황새울공원"
    },
    {
      "lat": 37.38188,
      "lon": 127.12006,
      "name": "잔디광장"
    },
    {
      "lat": 37.38311,
      "lon": 127.1168,
      "name": ""
    },
    {
      "lat": 37.40589,
      "lon": 127.11249,
      "name": ""
    },
    {
      "lat": 37.40236,
      "lon": 127.11325,
      "name": ""
    },
    {
      "lat": 37.40075,
      "lon": 127.11326,
      "name": ""
    },
    {
      "lat": 37.39952,
      "lon": 127.1147,
      "name": "삼평어린이공원"
    },
    {
      "lat": 37.38199,
      "lon": 127.11321,
      "name": "마루공원"
    },
    {
      "lat": 37.38197,
      "lon": 127.1271,
      "name": "서현어린이공원"
    },
    {
      "lat": 37.38241,
      "lon": 127.13068,
      "name": "103"
    },
    {
      "lat": 37.39462,
      "lon": 127.10765,
      "name": ""
    },
    {
      "lat": 37.38674,
      "lon": 127.11592,
      "name": "물방울어린이공원"
    },
    {
      "lat": 37.39497,
      "lon": 127.0992,
      "name": "미르어린이공원"
    },
    {
      "lat": 37.39069,
      "lon": 127.08821,
      "name": ""
    },
    {
      "lat": 37.38927,
      "lon": 127.08871,
      "name": ""
    },
    {
      "lat": 37.3489,
      "lon": 127.11129,
      "name": "뒷구미어린이공원"
    },
    {
      "lat": 37.34661,
      "lon": 127.10635,
      "name": "머내과학공원"
    },
    {
      "lat": 37.34047,
      "lon": 127.11206,
      "name": "오리공원"
    },
    {
      "lat": 37.36466,
      "lon": 127.12824,
      "name": "수내 어린이 공원"
    },
    {
      "lat": 37.43395,
      "lon": 127.15087,
      "name": "대원공원"
    },
    {
      "lat": 37.33978,
      "lon": 127.12278,
      "name": "무지개어린이공원"
    },
    {
      "lat": 37.40452,
      "lon": 127.11511,
      "name": "송현어린이공원"
    },
    {
      "lat": 37.3908,
      "lon": 127.12574,
      "name": "동부코오롱아파트 놀이터"
    },
    {
      "lat": 37.45533,
      "lon": 127.12842,
      "name": "복정공원"
    },
    {
      "lat": 37.37122,
      "lon": 127.11233,
      "name": "백현어린이공원"
    },
    {
      "lat": 37.37039,
      "lon": 127.11654,
      "name": "능골공원"
    },
    {
      "lat": 37.36664,
      "lon": 127.11693,
      "name": "한솔 어린이 공원"
    },
    {
      "lat": 37.36158,
      "lon": 127.11651,
      "name": "정든어린이공원"
    },
    {
      "lat": 37.36116,
      "lon": 127.11251,
      "name": "봉우재어린이공원"
    },
    {
      "lat": 37.36626,
      "lon": 127.1118,
      "name": "느티마을어린이공원"
    },
    {
      "lat": 37.32035,
      "lon": 127.11671,
      "name": "죽현마을 중앙공원"
    },
    {
      "lat": 37.32122,
      "lon": 127.12193,
      "name": "배수지공원"
    },
    {
      "lat": 37.37905,
      "lon": 127.13113,
      "name": "분당어린이공원"
    },
    {
      "lat": 37.36642,
      "lon": 127.12224,
      "name": "철쭉 어린이공원"
    },
    {
      "lat": 37.3773,
      "lon": 127.14036,
      "name": "점골어린이공원"
    },
    {
      "lat": 37.35356,
      "lon": 127.11341,
      "name": "앞구미어린이공원"
    },
    {
      "lat": 37.35156,
      "lon": 127.11067,
      "name": "청솔어린이공원"
    },
    {
      "lat": 37.35152,
      "lon": 127.10661,
      "name": "야생화어린이공원"
    },
    {
      "lat": 37.34811,
      "lon": 127.11529,
      "name": "벌말공원"
    },
    {
      "lat": 37.34231,
      "lon": 127.17419,
      "name": ""
    },
    {
      "lat": 37.34265,
      "lon": 127.17474,
      "name": ""
    },
    {
      "lat": 37.33986,
      "lon": 127.1739,
      "name": ""
    },
    {
      "lat": 37.33746,
      "lon": 127.11729,
      "name": "구미 어린이공원"
    },
    {
      "lat": 37.36838,
      "lon": 127.12505,
      "name": "푸른어린이공원"
    },
    {
      "lat": 37.35058,
      "lon": 127.11347,
      "name": ""
    },
    {
      "lat": 37.3502,
      "lon": 127.11376,
      "name": ""
    },
    {
      "lat": 37.35141,
      "lon": 127.11595,
      "name": ""
    },
    {
      "lat": 37.39461,
      "lon": 127.10897,
      "name": "모자이크파크"
    },
    {
      "lat": 37.47783,
      "lon": 127.14237,
      "name": ""
    },
    {
      "lat": 37.44309,
      "lon": 127.13404,
      "name": ""
    },
    {
      "lat": 37.34365,
      "lon": 127.11816,
      "name": ""
    },
    {
      "lat": 37.35118,
      "lon": 127.11816,
      "name": "까치마을어린이공원"
    },
    {
      "lat": 37.34883,
      "lon": 127.11869,
      "name": "샘터어린이공원"
    },
    {
      "lat": 37.34492,
      "lon": 127.11798,
      "name": "하얀어린이공원"
    },
    {
      "lat": 37.34445,
      "lon": 127.11414,
      "name": "오리어린이공원"
    },
    {
      "lat": 37.46933,
      "lon": 127.09068,
      "name": ""
    },
    {
      "lat": 37.34156,
      "lon": 127.09712,
      "name": "광장"
    },
    {
      "lat": 37.36161,
      "lon": 127.12089,
      "name": ""
    },
    {
      "lat": 37.34559,
      "lon": 127.11454,
      "name": "주공아파트 놀이터"
    },
    {
      "lat": 37.34562,
      "lon": 127.11239,
      "name": "하얀마을 놀이터"
    },
    {
      "lat": 37.34508,
      "lon": 127.11225,
      "name": ""
    },
    {
      "lat": 37.47332,
      "lon": 127.10822,
      "name": "아래방죽마을공원"
    },
    {
      "lat": 37.37215,
      "lon": 127.12981,
      "name": "당골공원"
    },
    {
      "lat": 37.48042,
      "lon": 127.08919,
      "name": ""
    },
    {
      "lat": 37.37204,
      "lon": 127.12143,
      "name": "내정어린이공원"
    },
    {
      "lat": 37.37537,
      "lon": 127.11757,
      "name": "초림어린이공원"
    },
    {
      "lat": 37.47264,
      "lon": 127.14514,
      "name": ""
    },
    {
      "lat": 37.47309,
      "lon": 127.14494,
      "name": ""
    },
    {
      "lat": 37.41586,
      "lon": 127.13571,
      "name": "매화1단지 놀이터"
    },
    {
      "lat": 37.36376,
      "lon": 127.11443,
      "name": ""
    },
    {
      "lat": 37.47182,
      "lon": 127.10903,
      "name": ""
    },
    {
      "lat": 37.4726,
      "lon": 127.10659,
      "name": ""
    },
    {
      "lat": 37.46974,
      "lon": 127.10457,
      "name": ""
    },
    {
      "lat": 37.37453,
      "lon": 127.11682,
      "name": "햇빛어린이공원"
    },
    {
      "lat": 37.41533,
      "lon": 127.13743,
      "name": "연꽃 어린이공원"
    },
    {
      "lat": 37.4024,
      "lon": 127.12596,
      "name": "과수원어린이공원"
    },
    {
      "lat": 37.47252,
      "lon": 127.08894,
      "name": "고양이쉼터"
    },
    {
      "lat": 37.47938,
      "lon": 127.13363,
      "name": "버들어린이공원"
    },
    {
      "lat": 37.39775,
      "lon": 127.12579,
      "name": "방아다리어린이공원"
    },
    {
      "lat": 37.3752,
      "lon": 127.13448,
      "name": "서당어린이공원"
    },
    {
      "lat": 37.37609,
      "lon": 127.13503,
      "name": "효자어린이공원"
    },
    {
      "lat": 37.37339,
      "lon": 127.13932,
      "name": "양영어린이공원"
    },
    {
      "lat": 37.37105,
      "lon": 127.13596,
      "name": "미래어린이공원"
    },
    {
      "lat": 37.36949,
      "lon": 127.14357,
      "name": "태현공원"
    },
    {
      "lat": 37.37241,
      "lon": 127.1405,
      "name": "수련어린이공원"
    },
    {
      "lat": 37.37258,
      "lon": 127.14305,
      "name": "안말어린이공원"
    },
    {
      "lat": 37.37071,
      "lon": 127.141,
      "name": "장안어린이공원"
    },
    {
      "lat": 37.38494,
      "lon": 127.11055,
      "name": "정자목어린이공원"
    },
    {
      "lat": 37.38397,
      "lon": 127.11312,
      "name": "보물섬어린이공원"
    },
    {
      "lat": 37.39718,
      "lon": 127.10489,
      "name": "화랑공원"
    },
    {
      "lat": 37.34218,
      "lon": 127.11874,
      "name": "구미공원"
    },
    {
      "lat": 37.32677,
      "lon": 127.09227,
      "name": ""
    },
    {
      "lat": 37.32521,
      "lon": 127.08967,
      "name": "방죽골공원"
    },
    {
      "lat": 37.33214,
      "lon": 127.09034,
      "name": "동천2근린공원"
    },
    {
      "lat": 37.33096,
      "lon": 127.09517,
      "name": ""
    },
    {
      "lat": 37.3427,
      "lon": 127.11257,
      "name": ""
    },
    {
      "lat": 37.39212,
      "lon": 127.0667,
      "name": "바람길 어린이공원"
    },
    {
      "lat": 37.391,
      "lon": 127.06709,
      "name": "물빛어린이공원"
    },
    {
      "lat": 37.39086,
      "lon": 127.07191,
      "name": "운중공원"
    },
    {
      "lat": 37.39,
      "lon": 127.07659,
      "name": ""
    },
    {
      "lat": 37.38989,
      "lon": 127.07242,
      "name": ""
    },
    {
      "lat": 37.39371,
      "lon": 127.07992,
      "name": ""
    },
    {
      "lat": 37.39236,
      "lon": 127.0797,
      "name": ""
    },
    {
      "lat": 37.39156,
      "lon": 127.08367,
      "name": "눈꽃어린이공원"
    },
    {
      "lat": 37.38868,
      "lon": 127.08211,
      "name": "도담어린이공원"
    },
    {
      "lat": 37.39101,
      "lon": 127.07959,
      "name": ""
    },
    {
      "lat": 37.38483,
      "lon": 127.07277,
      "name": ""
    },
    {
      "lat": 37.41915,
      "lon": 127.1237,
      "name": "성남여수지구시청공원"
    },
    {
      "lat": 37.41781,
      "lon": 127.12663,
      "name": ""
    },
    {
      "lat": 37.4178,
      "lon": 127.12596,
      "name": "한아름어린이공원"
    },
    {
      "lat": 37.34807,
      "lon": 127.11251,
      "name": ""
    },
    {
      "lat": 37.34857,
      "lon": 127.11222,
      "name": "신원아파트 놀이터"
    },
    {
      "lat": 37.46921,
      "lon": 127.15733,
      "name": ""
    },
    {
      "lat": 37.3475,
      "lon": 127.11099,
      "name": ""
    },
    {
      "lat": 37.32564,
      "lon": 127.07631,
      "name": "홍천어린이공원"
    },
    {
      "lat": 37.43709,
      "lon": 127.16824,
      "name": ""
    },
    {
      "lat": 37.43937,
      "lon": 127.17041,
      "name": ""
    },
    {
      "lat": 37.34468,
      "lon": 127.11092,
      "name": ""
    },
    {
      "lat": 37.41969,
      "lon": 127.13155,
      "name": ""
    },
    {
      "lat": 37.43715,
      "lon": 127.14853,
      "name": ""
    },
    {
      "lat": 37.43737,
      "lon": 127.14904,
      "name": ""
    },
    {
      "lat": 37.38687,
      "lon": 127.10024,
      "name": "낙생어린이공원"
    },
    {
      "lat": 37.42849,
      "lon": 127.12646,
      "name": ""
    },
    {
      "lat": 37.43032,
      "lon": 127.12639,
      "name": ""
    },
    {
      "lat": 37.33868,
      "lon": 127.08426,
      "name": "용인동천어린이공원"
    },
    {
      "lat": 37.47256,
      "lon": 127.10836,
      "name": ""
    },
    {
      "lat": 37.47229,
      "lon": 127.10746,
      "name": ""
    },
    {
      "lat": 37.47249,
      "lon": 127.11546,
      "name": "율현공원"
    },
    {
      "lat": 37.47554,
      "lon": 127.11504,
      "name": "율현공원"
    },
    {
      "lat": 37.41141,
      "lon": 127.09895,
      "name": ""
    },
    {
      "lat": 37.4609,
      "lon": 127.12887,
      "name": "주산도어린이공원"
    },
    {
      "lat": 37.32819,
      "lon": 127.07723,
      "name": "신일어린이공원"
    },
    {
      "lat": 37.32455,
      "lon": 127.10058,
      "name": "풍덕천소공원"
    },
    {
      "lat": 37.32645,
      "lon": 127.09982,
      "name": "달빛어린이공원"
    },
    {
      "lat": 37.33893,
      "lon": 127.08491,
      "name": ""
    },
    {
      "lat": 37.47765,
      "lon": 127.14098,
      "name": "송례근린공원"
    },
    {
      "lat": 37.47274,
      "lon": 127.0519,
      "name": "포이공원"
    },
    {
      "lat": 37.47095,
      "lon": 127.04983,
      "name": ""
    },
    {
      "lat": 37.47237,
      "lon": 127.05033,
      "name": ""
    },
    {
      "lat": 37.47317,
      "lon": 127.0533,
      "name": ""
    },
    {
      "lat": 37.40405,
      "lon": 127.10138,
      "name": "우주공원"
    },
    {
      "lat": 37.40513,
      "lon": 127.09865,
      "name": "빛나래어린이공원"
    },
    {
      "lat": 37.34765,
      "lon": 127.11341,
      "name": "까치마을 근린공원"
    },
    {
      "lat": 37.40164,
      "lon": 127.10214,
      "name": "환상어린이공원"
    },
    {
      "lat": 37.40442,
      "lon": 127.10799,
      "name": "달팽이어린이공원"
    },
    {
      "lat": 37.3991,
      "lon": 127.10817,
      "name": "판교테크노파크 공원"
    },
    {
      "lat": 37.39931,
      "lon": 127.1112,
      "name": "봇들저류지 공원"
    },
    {
      "lat": 37.40169,
      "lon": 127.11135,
      "name": "어울어린이공원"
    },
    {
      "lat": 37.32614,
      "lon": 127.07671,
      "name": ""
    },
    {
      "lat": 37.33036,
      "lon": 127.11495,
      "name": ""
    },
    {
      "lat": 37.47765,
      "lon": 127.142,
      "name": ""
    },
    {
      "lat": 37.47728,
      "lon": 127.14026,
      "name": ""
    },
    {
      "lat": 37.47761,
      "lon": 127.14573,
      "name": "위례별근린공원"
    },
    {
      "lat": 37.34056,
      "lon": 127.10134,
      "name": ""
    },
    {
      "lat": 37.33971,
      "lon": 127.10124,
      "name": ""
    },
    {
      "lat": 37.34045,
      "lon": 127.10078,
      "name": "영풍아파트 공원"
    },
    {
      "lat": 37.33943,
      "lon": 127.09961,
      "name": "현대홈타운 공원"
    },
    {
      "lat": 37.33845,
      "lon": 127.10247,
      "name": ""
    },
    {
      "lat": 37.33834,
      "lon": 127.10241,
      "name": ""
    },
    {
      "lat": 37.33812,
      "lon": 127.10247,
      "name": ""
    },
    {
      "lat": 37.33775,
      "lon": 127.10244,
      "name": ""
    },
    {
      "lat": 37.3375,
      "lon": 127.1025,
      "name": ""
    },
    {
      "lat": 37.33726,
      "lon": 127.10251,
      "name": ""
    },
    {
      "lat": 37.33793,
      "lon": 127.1025,
      "name": ""
    },
    {
      "lat": 37.32866,
      "lon": 127.10157,
      "name": ""
    },
    {
      "lat": 37.33666,
      "lon": 127.10251,
      "name": ""
    },
    {
      "lat": 37.36915,
      "lon": 127.1145,
      "name": ""
    },
    {
      "lat": 37.3482,
      "lon": 127.11226,
      "name": "선경아파트 놀이터"
    },
    {
      "lat": 37.34604,
      "lon": 127.11226,
      "name": "선경아파트 놀이터"
    },
    {
      "lat": 37.34455,
      "lon": 127.09255,
      "name": ""
    },
    {
      "lat": 37.33371,
      "lon": 127.08608,
      "name": "동천 1 근린공원"
    },
    {
      "lat": 37.45709,
      "lon": 127.16891,
      "name": "은행정이공원"
    },
    {
      "lat": 37.45591,
      "lon": 127.16793,
      "name": "은행오거리 쉼터"
    },
    {
      "lat": 37.32053,
      "lon": 127.13071,
      "name": "폭포공원"
    },
    {
      "lat": 37.34172,
      "lon": 127.1706,
      "name": ""
    },
    {
      "lat": 37.34168,
      "lon": 127.17012,
      "name": ""
    },
    {
      "lat": 37.33186,
      "lon": 127.16324,
      "name": ""
    },
    {
      "lat": 37.33218,
      "lon": 127.16251,
      "name": ""
    },
    {
      "lat": 37.33233,
      "lon": 127.15449,
      "name": ""
    },
    {
      "lat": 37.33452,
      "lon": 127.15881,
      "name": ""
    },
    {
      "lat": 37.33432,
      "lon": 127.15882,
      "name": ""
    },
    {
      "lat": 37.33513,
      "lon": 127.16968,
      "name": ""
    },
    {
      "lat": 37.32886,
      "lon": 127.15902,
      "name": ""
    },
    {
      "lat": 37.3266,
      "lon": 127.16061,
      "name": ""
    },
    {
      "lat": 37.32101,
      "lon": 127.15532,
      "name": ""
    },
    {
      "lat": 37.34214,
      "lon": 127.172,
      "name": ""
    },
    {
      "lat": 37.34832,
      "lon": 127.17972,
      "name": ""
    },
    {
      "lat": 37.34639,
      "lon": 127.15344,
      "name": ""
    },
    {
      "lat": 37.33229,
      "lon": 127.13654,
      "name": "제4호소공원"
    },
    {
      "lat": 37.32529,
      "lon": 127.12596,
      "name": "비발디공원"
    },
    {
      "lat": 37.47069,
      "lon": 127.09336,
      "name": "숲자락 공원"
    },
    {
      "lat": 37.32229,
      "lon": 127.12426,
      "name": "안골어린이공원"
    },
    {
      "lat": 37.34083,
      "lon": 127.12203,
      "name": "구미공원"
    },
    {
      "lat": 37.33885,
      "lon": 127.11455,
      "name": "신한아파트 소공원"
    },
    {
      "lat": 37.33942,
      "lon": 127.11436,
      "name": "3단지 관리사무소 앞 공원"
    },
    {
      "lat": 37.34223,
      "lon": 127.12585,
      "name": "덕봉어린이공원"
    },
    {
      "lat": 37.33915,
      "lon": 127.11395,
      "name": "3단지 테니스장 공터"
    },
    {
      "lat": 37.3386,
      "lon": 127.11529,
      "name": ""
    },
    {
      "lat": 37.33652,
      "lon": 127.11359,
      "name": "진고개공원"
    },
    {
      "lat": 37.33945,
      "lon": 127.11444,
      "name": "탄천 무지개공원"
    },
    {
      "lat": 37.33969,
      "lon": 127.11535,
      "name": "건영 3단지 공원"
    },
    {
      "lat": 37.33678,
      "lon": 127.11205,
      "name": "탄천공원"
    },
    {
      "lat": 37.3447,
      "lon": 127.12655,
      "name": "불곡어린이공원"
    },
    {
      "lat": 37.34021,
      "lon": 127.12608,
      "name": "큰골어린이공원"
    },
    {
      "lat": 37.33893,
      "lon": 127.11364,
      "name": ""
    },
    {
      "lat": 37.33466,
      "lon": 127.12033,
      "name": "12단지 주공공원"
    },
    {
      "lat": 37.33528,
      "lon": 127.12035,
      "name": "주공 소공원"
    },
    {
      "lat": 37.46302,
      "lon": 127.1683,
      "name": "양지동 어린이공원"
    },
    {
      "lat": 37.46415,
      "lon": 127.16351,
      "name": "양지공원"
    },
    {
      "lat": 37.43913,
      "lon": 127.15398,
      "name": ""
    },
    {
      "lat": 37.44109,
      "lon": 127.1592,
      "name": ""
    },
    {
      "lat": 37.33696,
      "lon": 127.11835,
      "name": "가로공원"
    },
    {
      "lat": 37.34018,
      "lon": 127.11849,
      "name": ""
    },
    {
      "lat": 37.46957,
      "lon": 127.14707,
      "name": ""
    },
    {
      "lat": 37.47613,
      "lon": 127.14919,
      "name": ""
    },
    {
      "lat": 37.34006,
      "lon": 127.11784,
      "name": "청구 5단지 테니스장"
    },
    {
      "lat": 37.33945,
      "lon": 127.11908,
      "name": ""
    },
    {
      "lat": 37.33998,
      "lon": 127.11924,
      "name": ""
    },
    {
      "lat": 37.33799,
      "lon": 127.12099,
      "name": ""
    },
    {
      "lat": 37.34028,
      "lon": 127.12125,
      "name": ""
    },
    {
      "lat": 37.45096,
      "lon": 127.13379,
      "name": "영장근린공원"
    },
    {
      "lat": 37.45466,
      "lon": 127.05308,
      "name": ""
    },
    {
      "lat": 37.45293,
      "lon": 127.0522,
      "name": ""
    },
    {
      "lat": 37.35045,
      "lon": 127.11343,
      "name": ""
    },
    {
      "lat": 37.32968,
      "lon": 127.10011,
      "name": "래미안이스트파크 놀이공원"
    },
    {
      "lat": 37.32851,
      "lon": 127.09985,
      "name": "래미안로스트밸리"
    },
    {
      "lat": 37.32925,
      "lon": 127.09923,
      "name": ""
    },
    {
      "lat": 37.32969,
      "lon": 127.09942,
      "name": "래미안머쉬룸쉘터"
    },
    {
      "lat": 37.34344,
      "lon": 127.1166,
      "name": "그랜드빌 입구정원"
    },
    {
      "lat": 37.34378,
      "lon": 127.11668,
      "name": "402동 정원"
    },
    {
      "lat": 37.34366,
      "lon": 127.11684,
      "name": "402동 정원"
    },
    {
      "lat": 37.34363,
      "lon": 127.11686,
      "name": "403동 정원"
    },
    {
      "lat": 37.34355,
      "lon": 127.11701,
      "name": "403동 정원"
    },
    {
      "lat": 37.34322,
      "lon": 127.11669,
      "name": "213동 정원"
    },
    {
      "lat": 37.3436,
      "lon": 127.11757,
      "name": "203동 정원"
    },
    {
      "lat": 37.34385,
      "lon": 127.11761,
      "name": "404동 정원"
    },
    {
      "lat": 37.34387,
      "lon": 127.11638,
      "name": "401동 정원"
    },
    {
      "lat": 37.34408,
      "lon": 127.11684,
      "name": "407동 정원"
    },
    {
      "lat": 37.34398,
      "lon": 127.11706,
      "name": "406동 정원"
    },
    {
      "lat": 37.33694,
      "lon": 127.06391,
      "name": "신봉배수지"
    },
    {
      "lat": 37.32899,
      "lon": 127.06358,
      "name": "상보골 어린이공원"
    },
    {
      "lat": 37.32773,
      "lon": 127.06609,
      "name": ""
    },
    {
      "lat": 37.32026,
      "lon": 127.07755,
      "name": "바지산 어린이공원"
    },
    {
      "lat": 37.32746,
      "lon": 127.06211,
      "name": "도마치 근린공원"
    },
    {
      "lat": 37.32629,
      "lon": 127.06397,
      "name": ""
    },
    {
      "lat": 37.32927,
      "lon": 127.07219,
      "name": "신봉어린이공원"
    },
    {
      "lat": 37.32785,
      "lon": 127.07428,
      "name": "중말 어린이공원"
    },
    {
      "lat": 37.32473,
      "lon": 127.10628,
      "name": ""
    },
    {
      "lat": 37.4642,
      "lon": 127.1279,
      "name": "기왓골어린이공원"
    },
    {
      "lat": 37.47175,
      "lon": 127.09371,
      "name": ""
    },
    {
      "lat": 37.47494,
      "lon": 127.14517,
      "name": ""
    },
    {
      "lat": 37.4679,
      "lon": 127.15247,
      "name": ""
    },
    {
      "lat": 37.38449,
      "lon": 127.13053,
      "name": "솔밭어린이공원"
    },
    {
      "lat": 37.36871,
      "lon": 127.11374,
      "name": ""
    },
    {
      "lat": 37.3481,
      "lon": 127.11526,
      "name": ""
    },
    {
      "lat": 37.34804,
      "lon": 127.11532,
      "name": ""
    },
    {
      "lat": 37.34859,
      "lon": 127.11341,
      "name": ""
    },
    {
      "lat": 37.34825,
      "lon": 127.11381,
      "name": ""
    },
    {
      "lat": 37.34749,
      "lon": 127.11456,
      "name": ""
    },
    {
      "lat": 37.34657,
      "lon": 127.11459,
      "name": ""
    },
    {
      "lat": 37.34631,
      "lon": 127.11416,
      "name": ""
    },
    {
      "lat": 37.33978,
      "lon": 127.11799,
      "name": ""
    },
    {
      "lat": 37.3387,
      "lon": 127.10841,
      "name": "하나로마트 문화광장"
    },
    {
      "lat": 37.3323,
      "lon": 127.12191,
      "name": ""
    },
    {
      "lat": 37.33203,
      "lon": 127.12199,
      "name": ""
    },
    {
      "lat": 37.3379,
      "lon": 127.10968,
      "name": ""
    },
    {
      "lat": 37.33783,
      "lon": 127.11097,
      "name": ""
    },
    {
      "lat": 37.33992,
      "lon": 127.11099,
      "name": "무지개로 공원"
    },
    {
      "lat": 37.34743,
      "lon": 127.11311,
      "name": ""
    },
    {
      "lat": 37.34751,
      "lon": 127.11261,
      "name": ""
    },
    {
      "lat": 37.34744,
      "lon": 127.11395,
      "name": ""
    },
    {
      "lat": 37.34729,
      "lon": 127.11223,
      "name": ""
    },
    {
      "lat": 37.34665,
      "lon": 127.11215,
      "name": ""
    },
    {
      "lat": 37.34652,
      "lon": 127.11422,
      "name": ""
    },
    {
      "lat": 37.35073,
      "lon": 127.10863,
      "name": ""
    },
    {
      "lat": 37.35086,
      "lon": 127.10832,
      "name": ""
    },
    {
      "lat": 37.34516,
      "lon": 127.11846,
      "name": ""
    },
    {
      "lat": 37.33564,
      "lon": 127.1156,
      "name": ""
    },
    {
      "lat": 37.34176,
      "lon": 127.12491,
      "name": ""
    },
    {
      "lat": 37.34222,
      "lon": 127.12465,
      "name": ""
    },
    {
      "lat": 37.33635,
      "lon": 127.11537,
      "name": "테니스장"
    },
    {
      "lat": 37.33541,
      "lon": 127.11643,
      "name": ""
    },
    {
      "lat": 37.33474,
      "lon": 127.11601,
      "name": ""
    },
    {
      "lat": 37.33458,
      "lon": 127.1169,
      "name": ""
    },
    {
      "lat": 37.3349,
      "lon": 127.11748,
      "name": ""
    },
    {
      "lat": 37.33636,
      "lon": 127.11398,
      "name": ""
    },
    {
      "lat": 37.33589,
      "lon": 127.11452,
      "name": ""
    },
    {
      "lat": 37.33679,
      "lon": 127.11463,
      "name": ""
    },
    {
      "lat": 37.33946,
      "lon": 127.11662,
      "name": ""
    },
    {
      "lat": 37.34015,
      "lon": 127.11662,
      "name": ""
    },
    {
      "lat": 37.33888,
      "lon": 127.11721,
      "name": ""
    },
    {
      "lat": 37.33926,
      "lon": 127.1176,
      "name": ""
    },
    {
      "lat": 37.33648,
      "lon": 127.10841,
      "name": ""
    },
    {
      "lat": 37.33396,
      "lon": 127.10591,
      "name": ""
    },
    {
      "lat": 37.33859,
      "lon": 127.11966,
      "name": ""
    },
    {
      "lat": 37.33837,
      "lon": 127.11806,
      "name": ""
    },
    {
      "lat": 37.33941,
      "lon": 127.12073,
      "name": ""
    },
    {
      "lat": 37.34053,
      "lon": 127.12065,
      "name": ""
    },
    {
      "lat": 37.34156,
      "lon": 127.12639,
      "name": ""
    },
    {
      "lat": 37.34144,
      "lon": 127.12624,
      "name": ""
    },
    {
      "lat": 37.34047,
      "lon": 127.12477,
      "name": "넘말 어린이공원"
    },
    {
      "lat": 37.34025,
      "lon": 127.12364,
      "name": ""
    },
    {
      "lat": 37.33857,
      "lon": 127.12213,
      "name": ""
    },
    {
      "lat": 37.33809,
      "lon": 127.11967,
      "name": ""
    },
    {
      "lat": 37.33435,
      "lon": 127.11647,
      "name": ""
    },
    {
      "lat": 37.33916,
      "lon": 127.11577,
      "name": ""
    },
    {
      "lat": 37.339,
      "lon": 127.11996,
      "name": ""
    },
    {
      "lat": 37.33967,
      "lon": 127.10994,
      "name": ""
    },
    {
      "lat": 37.3302,
      "lon": 127.09958,
      "name": "래미안쉼터"
    },
    {
      "lat": 37.34292,
      "lon": 127.10741,
      "name": "동막천산책로"
    },
    {
      "lat": 37.47115,
      "lon": 127.10055,
      "name": ""
    },
    {
      "lat": 37.47036,
      "lon": 127.10459,
      "name": ""
    },
    {
      "lat": 37.4604,
      "lon": 127.10366,
      "name": "해오름근린공원"
    },
    {
      "lat": 37.37483,
      "lon": 127.13238,
      "name": ""
    },
    {
      "lat": 37.37389,
      "lon": 127.13252,
      "name": ""
    },
    {
      "lat": 37.42875,
      "lon": 127.12641,
      "name": ""
    },
    {
      "lat": 37.43117,
      "lon": 127.12435,
      "name": ""
    },
    {
      "lat": 37.36925,
      "lon": 127.14659,
      "name": "동문 어린이공원"
    },
    {
      "lat": 37.36754,
      "lon": 127.1428,
      "name": "태현 어린이공원"
    },
    {
      "lat": 37.36556,
      "lon": 127.14135,
      "name": "선지봉 어린이공원"
    },
    {
      "lat": 37.39016,
      "lon": 127.09916,
      "name": "너른들 어린이공원"
    },
    {
      "lat": 37.41545,
      "lon": 127.14109,
      "name": "새싹 어린이공원"
    },
    {
      "lat": 37.41463,
      "lon": 127.13793,
      "name": "매향 어린이공원"
    },
    {
      "lat": 37.40255,
      "lon": 127.09484,
      "name": "바람개비 어린이공원"
    },
    {
      "lat": 37.39832,
      "lon": 127.09737,
      "name": "봄볕 어린이공원"
    },
    {
      "lat": 37.38986,
      "lon": 127.09149,
      "name": "너울 어린이공원"
    },
    {
      "lat": 37.46729,
      "lon": 127.09716,
      "name": ""
    },
    {
      "lat": 37.46733,
      "lon": 127.09865,
      "name": ""
    },
    {
      "lat": 37.46807,
      "lon": 127.10059,
      "name": ""
    },
    {
      "lat": 37.4676,
      "lon": 127.09979,
      "name": ""
    },
    {
      "lat": 37.46586,
      "lon": 127.10931,
      "name": ""
    },
    {
      "lat": 37.46391,
      "lon": 127.1071,
      "name": ""
    },
    {
      "lat": 37.46238,
      "lon": 127.10458,
      "name": ""
    },
    {
      "lat": 37.46319,
      "lon": 127.10129,
      "name": ""
    },
    {
      "lat": 37.45347,
      "lon": 127.05354,
      "name": ""
    },
    {
      "lat": 37.47502,
      "lon": 127.11125,
      "name": ""
    },
    {
      "lat": 37.46073,
      "lon": 127.1474,
      "name": ""
    },
    {
      "lat": 37.47367,
      "lon": 127.15527,
      "name": "힐링포레스트"
    },
    {
      "lat": 37.47368,
      "lon": 127.1562,
      "name": ""
    },
    {
      "lat": 37.47236,
      "lon": 127.15578,
      "name": ""
    },
    {
      "lat": 37.46769,
      "lon": 127.12789,
      "name": "복정어린이공원"
    },
    {
      "lat": 37.44617,
      "lon": 127.15365,
      "name": "성남제1공단근린공원"
    },
    {
      "lat": 37.46405,
      "lon": 127.08036,
      "name": ""
    },
    {
      "lat": 37.46381,
      "lon": 127.07978,
      "name": ""
    },
    {
      "lat": 37.46652,
      "lon": 127.07418,
      "name": ""
    },
    {
      "lat": 37.46677,
      "lon": 127.07403,
      "name": ""
    },
    {
      "lat": 37.46687,
      "lon": 127.07406,
      "name": ""
    },
    {
      "lat": 37.4666,
      "lon": 127.07434,
      "name": ""
    },
    {
      "lat": 37.43496,
      "lon": 127.16689,
      "name": ""
    },
    {
      "lat": 37.46559,
      "lon": 127.10943,
      "name": ""
    },
    {
      "lat": 37.46381,
      "lon": 127.10721,
      "name": ""
    },
    {
      "lat": 37.46528,
      "lon": 127.10913,
      "name": ""
    },
    {
      "lat": 37.46661,
      "lon": 127.10869,
      "name": ""
    },
    {
      "lat": 37.46767,
      "lon": 127.07601,
      "name": ""
    },
    {
      "lat": 37.46785,
      "lon": 127.07569,
      "name": ""
    },
    {
      "lat": 37.46758,
      "lon": 127.07588,
      "name": ""
    },
    {
      "lat": 37.46732,
      "lon": 127.07412,
      "name": ""
    },
    {
      "lat": 37.46746,
      "lon": 127.0739,
      "name": ""
    },
    {
      "lat": 37.46752,
      "lon": 127.07419,
      "name": ""
    },
    {
      "lat": 37.46764,
      "lon": 127.07376,
      "name": ""
    },
    {
      "lat": 37.46793,
      "lon": 127.07506,
      "name": ""
    },
    {
      "lat": 37.46994,
      "lon": 127.13869,
      "name": ""
    },
    {
      "lat": 37.46967,
      "lon": 127.13809,
      "name": ""
    },
    {
      "lat": 37.4692,
      "lon": 127.14135,
      "name": "위례역사수변공원"
    },
    {
      "lat": 37.46773,
      "lon": 127.07448,
      "name": ""
    },
    {
      "lat": 37.46809,
      "lon": 127.07492,
      "name": ""
    },
    {
      "lat": 37.46803,
      "lon": 127.07319,
      "name": ""
    },
    {
      "lat": 37.46867,
      "lon": 127.07311,
      "name": ""
    },
    {
      "lat": 37.46878,
      "lon": 127.07308,
      "name": ""
    },
    {
      "lat": 37.46903,
      "lon": 127.07358,
      "name": ""
    },
    {
      "lat": 37.46897,
      "lon": 127.0737,
      "name": ""
    },
    {
      "lat": 37.4685,
      "lon": 127.07319,
      "name": ""
    },
    {
      "lat": 37.46858,
      "lon": 127.07365,
      "name": ""
    },
    {
      "lat": 37.46917,
      "lon": 127.07421,
      "name": ""
    },
    {
      "lat": 37.4692,
      "lon": 127.07438,
      "name": ""
    },
    {
      "lat": 37.46824,
      "lon": 127.07257,
      "name": ""
    },
    {
      "lat": 37.46822,
      "lon": 127.07305,
      "name": ""
    },
    {
      "lat": 37.4684,
      "lon": 127.0729,
      "name": ""
    },
    {
      "lat": 37.46827,
      "lon": 127.07282,
      "name": ""
    },
    {
      "lat": 37.46893,
      "lon": 127.07424,
      "name": ""
    },
    {
      "lat": 37.46875,
      "lon": 127.07442,
      "name": ""
    },
    {
      "lat": 37.46848,
      "lon": 127.07464,
      "name": ""
    },
    {
      "lat": 37.46735,
      "lon": 127.07364,
      "name": ""
    },
    {
      "lat": 37.47209,
      "lon": 127.1446,
      "name": ""
    },
    {
      "lat": 37.47888,
      "lon": 127.12955,
      "name": "솔바람 어린이공원"
    },
    {
      "lat": 37.47531,
      "lon": 127.12514,
      "name": ""
    },
    {
      "lat": 37.35235,
      "lon": 127.05163,
      "name": "광교산체육공원"
    },
    {
      "lat": 37.40094,
      "lon": 127.09576,
      "name": "성남판교역사공원"
    },
    {
      "lat": 37.45306,
      "lon": 127.06566,
      "name": "홍씨마을 어린이공원"
    },
    {
      "lat": 37.47205,
      "lon": 127.10219,
      "name": "안개근린공원"
    },
    {
      "lat": 37.48029,
      "lon": 127.08129,
      "name": "대모산 도시자연공원"
    },
    {
      "lat": 37.36873,
      "lon": 127.06792,
      "name": ""
    },
    {
      "lat": 37.36866,
      "lon": 127.06894,
      "name": ""
    },
    {
      "lat": 37.36628,
      "lon": 127.06976,
      "name": ""
    },
    {
      "lat": 37.37326,
      "lon": 127.06991,
      "name": ""
    },
    {
      "lat": 37.32013,
      "lon": 127.11214,
      "name": ""
    },
    {
      "lat": 37.47686,
      "lon": 127.13287,
      "name": ""
    },
    {
      "lat": 37.47856,
      "lon": 127.13535,
      "name": ""
    },
    {
      "lat": 37.4252,
      "lon": 127.09768,
      "name": "고산근린공원"
    },
    {
      "lat": 37.42906,
      "lon": 127.09911,
      "name": "고등근린공원"
    },
    {
      "lat": 37.43476,
      "lon": 127.15942,
      "name": ""
    },
    {
      "lat": 37.4367,
      "lon": 127.16513,
      "name": ""
    },
    {
      "lat": 37.45827,
      "lon": 127.10297,
      "name": ""
    },
    {
      "lat": 37.45453,
      "lon": 127.10607,
      "name": ""
    },
    {
      "lat": 37.45388,
      "lon": 127.10195,
      "name": ""
    },
    {
      "lat": 37.45328,
      "lon": 127.10216,
      "name": ""
    },
    {
      "lat": 37.45329,
      "lon": 127.10407,
      "name": ""
    },
    {
      "lat": 37.45351,
      "lon": 127.10448,
      "name": ""
    },
    {
      "lat": 37.45176,
      "lon": 127.0995,
      "name": ""
    },
    {
      "lat": 37.45173,
      "lon": 127.09969,
      "name": ""
    },
    {
      "lat": 37.44966,
      "lon": 127.09761,
      "name": ""
    },
    {
      "lat": 37.45033,
      "lon": 127.09929,
      "name": ""
    },
    {
      "lat": 37.44972,
      "lon": 127.1011,
      "name": ""
    },
    {
      "lat": 37.44864,
      "lon": 127.09787,
      "name": ""
    },
    {
      "lat": 37.44858,
      "lon": 127.09828,
      "name": ""
    },
    {
      "lat": 37.44936,
      "lon": 127.09809,
      "name": ""
    },
    {
      "lat": 37.47849,
      "lon": 127.10626,
      "name": ""
    },
    {
      "lat": 37.35882,
      "lon": 127.16963,
      "name": "능평8통체육공원"
    },
    {
      "lat": 37.37239,
      "lon": 127.16606,
      "name": "신현배수지 체육시설공원"
    },
    {
      "lat": 37.45746,
      "lon": 127.15024,
      "name": ""
    },
    {
      "lat": 37.47023,
      "lon": 127.11746,
      "name": ""
    },
    {
      "lat": 37.4676,
      "lon": 127.11357,
      "name": ""
    },
    {
      "lat": 37.46387,
      "lon": 127.12661,
      "name": ""
    },
    {
      "lat": 37.46645,
      "lon": 127.1296,
      "name": ""
    },
    {
      "lat": 37.39401,
      "lon": 127.07809,
      "name": "Podaesang Memorial House"
    },
    {
      "lat": 37.40002,
      "lon": 127.11611,
      "name": "학생정원"
    },
    {
      "lat": 37.38611,
      "lon": 127.10423,
      "name": "낙생대공원 체육시설"
    },
    {
      "lat": 37.47107,
      "lon": 127.10599,
      "name": ""
    },
    {
      "lat": 37.47171,
      "lon": 127.10638,
      "name": ""
    },
    {
      "lat": 37.32005,
      "lon": 127.06529,
      "name": "운동장"
    },
    {
      "lat": 37.32128,
      "lon": 127.06092,
      "name": ""
    },
    {
      "lat": 37.46589,
      "lon": 127.09547,
      "name": ""
    },
    {
      "lat": 37.46659,
      "lon": 127.0965,
      "name": ""
    },
    {
      "lat": 37.44916,
      "lon": 127.05792,
      "name": ""
    },
    {
      "lat": 37.44765,
      "lon": 127.05799,
      "name": ""
    },
    {
      "lat": 37.47954,
      "lon": 127.10733,
      "name": "주민운동시설"
    },
    {
      "lat": 37.47849,
      "lon": 127.10824,
      "name": "놀이터"
    },
    {
      "lat": 37.47806,
      "lon": 127.10817,
      "name": "놀이터"
    },
    {
      "lat": 37.44113,
      "lon": 127.12145,
      "name": "태평공원"
    },
    {
      "lat": 37.47213,
      "lon": 127.1151,
      "name": "율현공원 장미원"
    },
    {
      "lat": 37.47382,
      "lon": 127.10829,
      "name": "솔밭공원"
    },
    {
      "lat": 37.41303,
      "lon": 127.09945,
      "name": ""
    },
    {
      "lat": 37.43782,
      "lon": 127.14677,
      "name": "진경산수원"
    }
  ]
}